[{"nr": 1, "naam": "bo7kz2", "lat": 53.0836666666667, "lon": 5.338233, "kleur": "Noord", "licht": "W Q"}, {"nr": 2, "naam": "bs1in2", "lat": 53.2573266666667, "lon": 5.15622833333333, "kleur": "Oost", "licht": "VQ 3 (5)"}, {"nr": 3, "naam": "d7j2", "lat": 53.0331333333333, "lon": 5.13748333333333, "kleur": "Noord", "licht": "W VQ"}, {"nr": 4, "naam": "ea1", "lat": 52.579616, "lon": 5.223882, "kleur": "R/W", "licht": "W LFL 10s"}, {"nr": 5, "naam": "ea2", "lat": 52.510916, "lon": 5.216649, "kleur": "R/W", "licht": "W ISO 8s"}, {"nr": 6, "naam": "eg", "lat": 53.2226333333333, "lon": 4.7848, "kleur": "West", "licht": "W VQ 9 in 10 S"}, {"nr": 7, "naam": "ela", "lat": 52.7518166666667, "lon": 5.44486666666667, "kleur": "R/W", "licht": "W ISO 8s"}, {"nr": 8, "naam": "ezd", "lat": 52.67918, "lon": 5.49848333333333, "kleur": "R/W", "licht": "W Iso 8s"}, {"nr": 9, "naam": "gvs3m8", "lat": 52.9876666666667, "lon": 4.85945, "kleur": "Oost", "licht": "W 3 (10)"}, {"nr": 10, "naam": "Fin ORC", "lat": 52.7846666666667, "lon": 5.137, "kleur": "Blauw Wit", "licht": ""}, {"nr": 11, "naam": "h2w1", "lat": 52.9583833333333, "lon": 5.391217, "kleur": "R/G", "licht": "W Iso 2s"}, {"nr": 12, "naam": "kg", "lat": 52.718899, "lon": 5.333433, "kleur": "R/W", "licht": "W MO A 8S"}, {"nr": 13, "naam": "kg18", "lat": 52.6482, "lon": 5.23213333333333, "kleur": "R", "licht": "R Iso 2s"}, {"nr": 14, "naam": "lc11", "lat": 52.810316, "lon": 5.303266, "kleur": "G", "licht": "G Iso 4s"}, {"nr": 15, "naam": "lc1", "lat": 52.8557, "lon": 5.30605, "kleur": "G", "licht": "G Iso 4s"}, {"nr": 16, "naam": "mh4m1", "lat": 52.9689333333333, "lon": 4.79146666666667, "kleur": "West", "licht": "W VQ 9 (10)"}, {"nr": 17, "naam": "mn1gz2", "lat": 52.497016, "lon": 5.10216166666667, "kleur": "R/G", "licht": "G Q"}, {"nr": 18, "naam": "mr", "lat": 52.946167, "lon": 4.563382, "kleur": "West", "licht": "W Q 9 in 15s"}, {"nr": 19, "naam": "nh", "lat": 53.003816, "lon": 4.589417, "kleur": "Noord", "licht": "W VQ"}, {"nr": 20, "naam": "p9bo46", "lat": 53.1773, "lon": 5.396783, "kleur": "Noord", "licht": "W VQ"}, {"nr": 21, "naam": "sg", "lat": 52.8817333333333, "lon": 4.63173333333333, "kleur": "R/W", "licht": "W MO A 8s"}, {"nr": 22, "naam": "sporta", "lat": 52.9666666666667, "lon": 5.16666666666667, "kleur": "Y", "licht": "Y Fl 5s"}, {"nr": 23, "naam": "sportb", "lat": 52.95, "lon": 5.24166666666667, "kleur": "Y", "licht": "Y Fl 5 s"}, {"nr": 24, "naam": "sportc", "lat": 52.8, "lon": 5.15, "kleur": "Y", "licht": "Y Fl 5 s"}, {"nr": 25, "naam": "sportf", "lat": 52.6, "lon": 5.46666666666667, "kleur": "Y", "licht": "Y Fl 5 s"}, {"nr": 26, "naam": "sportg", "lat": 52.605, "lon": 5.16333333333333, "kleur": "Y", "licht": "Y Fl 5 s"}, {"nr": 27, "naam": "start Oever", "lat": 52.925, "lon": 5.051, "kleur": "Y", "licht": ""}, {"nr": 28, "naam": "start hoek ij", "lat": 52.4197333333333, "lon": 5.1446, "kleur": "Y", "licht": ""}, {"nr": 29, "naam": "start Enkh N", "lat": 52.7045333333333, "lon": 5.30696666666667, "kleur": "Y", "licht": ""}, {"nr": 30, "naam": "start Enkh Z", "lat": 52.6853333333333, "lon": 5.2791, "kleur": "Y", "licht": ""}, {"nr": 31, "naam": "start Hindelopen", "lat": 52.9555, "lon": 5.39426666666667, "kleur": "Y", "licht": ""}, {"nr": 32, "naam": "start Hoorn", "lat": 52.6329666666667, "lon": 5.06463333333333, "kleur": "Y", "licht": ""}, {"nr": 33, "naam": "start Lely N", "lat": 52.5394166666667, "lon": 5.43756666666667, "kleur": "Y", "licht": ""}, {"nr": 34, "naam": "start Lely Z", "lat": 52.51965, "lon": 5.42571666666667, "kleur": "Y", "licht": ""}, {"nr": 35, "naam": "start lemmer", "lat": 52.8366166666667, "lon": 5.70336666666667, "kleur": "Y", "licht": ""}, {"nr": 36, "naam": "start Mblik", "lat": 52.78, "lon": 5.123332, "kleur": "Y", "licht": ""}, {"nr": 37, "naam": "start Staveren", "lat": 52.87625, "lon": 5.35968333333333, "kleur": "Y", "licht": ""}, {"nr": 38, "naam": "start Volendam", "lat": 52.4913333333333, "lon": 5.09083333333333, "kleur": "Y", "licht": ""}, {"nr": 39, "naam": "t11gvs2", "lat": 52.9983, "lon": 4.81836666666667, "kleur": "West", "licht": "W 9 (15)"}, {"nr": 40, "naam": "vf7", "lat": 53.03665, "lon": 5.34895, "kleur": "G", "licht": "G Iso 2s"}, {"nr": 41, "naam": "vfa", "lat": 52.9426166666667, "lon": 5.3165, "kleur": "R/W", "licht": "W Lfl 10s"}, {"nr": 42, "naam": "vfb", "lat": 52.9051, "lon": 5.313832, "kleur": "R/W", "licht": "W Oc 6s"}, {"nr": 43, "naam": "wv12", "lat": 52.895432, "lon": 5.107632, "kleur": "R", "licht": "R Iso 2s"}, {"nr": 44, "naam": "wv19", "lat": 52.867249, "lon": 5.148867, "kleur": "G", "licht": "G Iso 2s"}, {"nr": 45, "naam": "zh", "lat": 52.9108, "lon": 4.578533, "kleur": "Zuid", "licht": "W VQ 6s Lfl 10s"}, {"nr": 46, "naam": "zs", "lat": 53.3046366666667, "lon": 4.93719333333333, "kleur": "R/W", "licht": "W Iso 4s"}, {"nr": 47, "naam": "sm7zs16", "lat": 53.3231666666667, "lon": 5.12833333333333, "kleur": "Noord", "licht": "W VQ"}, {"nr": 48, "naam": "kg10", "lat": 52.6776166666667, "lon": 5.26731666666667, "kleur": "G", "licht": "G Q"}, {"nr": 49, "naam": "sporth", "lat": 52.535, "lon": 5.16333333333333, "kleur": "Y", "licht": "Y Fl 5 s"}, {"nr": 50, "naam": "sporti", "lat": 52.5333333333333, "lon": 5.356, "kleur": "Y", "licht": "Y Fl 5 s"}, {"nr": 51, "naam": "sb8", "lat": 52.8210666666667, "lon": 5.35465, "kleur": "R", "licht": "R Iso 4s"}, {"nr": 52, "naam": "sportd", "lat": 52.7583333333333, "lon": 5.3, "kleur": "Y", "licht": "Y Fl 5 s"}, {"nr": 53, "naam": "sporte", "lat": 52.6166666666667, "lon": 5.5, "kleur": "Y", "licht": "Y Fl 5 s"}, {"nr": 54, "naam": "kra", "lat": 52.8257166666667, "lon": 5.22563333333333, "kleur": "R/W", "licht": "W Iso 6s"}, {"nr": 55, "naam": "sportj", "lat": 52.4666666666667, "lon": 5.23333333333333, "kleur": "Y", "licht": "Y Fl 5 s"}, {"nr": 56, "naam": "baden", "lat": 53.2258833333333, "lon": 4.691, "kleur": "West", "licht": "W Q 9 in 15 s"}, {"nr": 57, "naam": "sb18", "lat": 52.8205833333333, "lon": 5.42725, "kleur": "R", "licht": "R Iso 8s"}, {"nr": 58, "naam": "sb28", "lat": 52.8201833333333, "lon": 5.5023, "kleur": "R", "licht": "R Iso 8s"}, {"nr": 59, "naam": "elb", "lat": 52.7613333333333, "lon": 5.51883333333333, "kleur": "R/W", "licht": "W LFL 10 s"}, {"nr": 60, "naam": "ezc", "lat": 52.7096333333333, "lon": 5.43663333333333, "kleur": "R/W", "licht": "W ISO 8s"}, {"nr": 61, "naam": "sb40", "lat": 52.8195833333333, "lon": 5.59215, "kleur": "R", "licht": "R Iso 8s"}, {"nr": 62, "naam": "Fin tocht", "lat": 52.7871666666667, "lon": 5.12366666666667, "kleur": "R", "licht": ""}, {"nr": 63, "naam": "sportm", "lat": 52.605, "lon": 5.31916666666667, "kleur": "Y", "licht": "Y Fl 5 s"}, {"nr": 64, "naam": "start KWZ", "lat": 53.0790333333333, "lon": 5.3343, "kleur": "Y", "licht": ""}]